<?xml version="1.0" encoding="UTF-8" standalone="yes"?>
<rootElement>
    <cities>
        <cityElement>
            <name>Самара</name>
            <latitude>53.2001</latitude>
            <longitude>50.15</longitude>
        </cityElement>
        <cityElement>
            <name>Сызрань</name>
            <latitude>53.1585</latitude>
            <longitude>48.4681</longitude>
        </cityElement>
        <cityElement>
            <name>Москва</name>
            <latitude>55.7522</latitude>
            <longitude>37.6156</longitude>
        </cityElement>
        <cityElement>
            <name>Ростов</name>
            <latitude>47.2313</latitude>
            <longitude>39.7233</longitude>
        </cityElement>
        <cityElement>
            <name>Киров</name>
            <latitude>58.60353</latitude>
            <longitude>49.6668</longitude>
        </cityElement>
        <cityElement>
            <name>Саратов</name>
            <latitude>51.5406</latitude>
            <longitude>46.0086</longitude>
        </cityElement>
        <cityElement>
            <name>Тольятти</name>
            <latitude>53.516189</latitude>
            <longitude>49.41671</longitude>
        </cityElement>
    </cities>
    <distances>
        <distanceElement>
            <nameFrom>Тольятти</nameFrom>
            <nameTo>Саратов</nameTo>
            <distance>1232.12</distance>
        </distanceElement>
        <distanceElement>
            <nameFrom>Киров</nameFrom>
            <nameTo>Саратов</nameTo>
            <distance>126.23</distance>
        </distanceElement>
        <distanceElement>
            <nameFrom>Сызрань</nameFrom>
            <nameTo>Ростов</nameTo>
            <distance>684.11</distance>
        </distanceElement>
        <distanceElement>
            <nameFrom>Самара</nameFrom>
            <nameTo>Ростов</nameTo>
            <distance>132.51</distance>
        </distanceElement>
        <distanceElement>
            <nameFrom>Самара</nameFrom>
            <nameTo>Москва</nameTo>
            <distance>1252.51</distance>
        </distanceElement>
        <distanceElement>
            <nameFrom>Сызрань</nameFrom>
            <nameTo>Москва</nameTo>
            <distance>442.51</distance>
        </distanceElement>
    </distances>
</rootElement>